City_ID,City,Country,Lat,Lng,Max Temp,Humidity,Cloudiness,Wind Speed,Current Description,Date
0,Cockburn Town,TC,21.4612,-71.1419,75.22,65,0,11.63,clear sky,2021-03-15 03:30:54
1,Barrow,US,71.2906,-156.7887,-5.8,77,1,11.5,snow,2021-03-15 03:32:50
2,Hilo,US,19.7297,-155.09,71.6,83,90,4.61,light rain,2021-03-15 03:19:47
3,Sao Filipe,CV,14.8961,-24.4956,70.68,73,0,4.07,clear sky,2021-03-15 03:34:29
4,Port Hardy,CA,50.6996,-127.4199,41.0,80,40,8.05,scattered clouds,2021-03-15 03:34:30
5,Ushuaia,AR,-54.8,-68.3,48.2,71,75,8.05,light rain,2021-03-15 03:24:35
6,Vaini,TO,-21.2,-175.2,75.2,94,75,3.44,broken clouds,2021-03-15 03:24:56
7,Ribeira Grande,PT,38.5167,-28.7,60.39,92,34,6.93,scattered clouds,2021-03-15 03:34:30
8,Berlevag,NO,70.8578,29.0864,30.42,92,100,17.18,light snow,2021-03-15 03:25:40
9,Mataura,NZ,-46.1927,168.8643,57.99,79,100,15.01,overcast clouds,2021-03-15 03:24:41
10,Narsaq,GL,60.9167,-46.05,37.4,44,90,43.73,light snow,2021-03-15 03:34:31
11,Hithadhoo,MV,-0.6,73.0833,84.24,63,96,6.11,overcast clouds,2021-03-15 03:21:16
12,Punta Arenas,CL,-53.15,-70.9167,48.2,87,90,6.91,light rain,2021-03-15 03:32:17
13,Popondetta,PG,-8.7537,148.2534,88.59,59,78,6.29,broken clouds,2021-03-15 03:34:32
14,West Bay,KY,19.3667,-81.4167,78.01,83,20,4.61,few clouds,2021-03-15 03:34:32
15,Kontagora,NG,10.3999,5.4695,77.88,27,82,5.19,broken clouds,2021-03-15 03:34:33
16,Katangli,RU,51.7102,143.2326,36.25,97,24,5.95,few clouds,2021-03-15 03:34:33
17,Wahiawa,US,21.5028,-158.0236,75.2,78,20,5.75,light rain,2021-03-15 03:33:06
18,Avarua,CK,-21.2078,-159.775,82.4,78,20,6.91,few clouds,2021-03-15 03:24:47
19,Tuktoyaktuk,CA,69.4541,-133.0374,-18.4,76,75,9.22,broken clouds,2021-03-15 03:34:34
20,East London,ZA,-33.0153,27.9116,71.6,94,75,9.22,broken clouds,2021-03-15 03:34:34
21,Chokurdakh,RU,70.6333,147.9167,-13.63,91,0,5.88,clear sky,2021-03-15 03:34:35
22,Kapaa,US,22.0752,-159.319,73.4,88,90,18.41,moderate rain,2021-03-15 03:34:35
23,Provideniya,RU,64.3833,-173.3,26.6,93,100,8.84,snow,2021-03-15 03:23:48
24,Yellowknife,CA,62.456,-114.3525,8.6,78,90,9.22,light snow,2021-03-15 03:26:42
25,Fukue,JP,32.6881,128.8419,60.8,55,0,10.36,clear sky,2021-03-15 03:21:59
26,Bluff,NZ,-46.6,168.3333,57.99,77,59,14.0,broken clouds,2021-03-15 03:34:36
27,Rikitea,PF,-23.1203,-134.9692,81.72,70,17,4.16,light rain,2021-03-15 03:29:38
28,Khatanga,RU,71.9667,102.5,-19.86,93,100,11.34,overcast clouds,2021-03-15 03:25:21
29,Bredasdorp,ZA,-34.5322,20.0403,66.2,94,100,3.44,light rain,2021-03-15 03:34:37
30,Mecca,SA,21.4267,39.8261,75.15,54,34,2.42,scattered clouds,2021-03-15 03:30:12
31,Mar Del Plata,AR,-38.0023,-57.5575,69.01,94,0,5.75,light rain,2021-03-15 03:34:32
32,Alpena,US,45.0617,-83.4327,25.0,68,1,8.05,clear sky,2021-03-15 03:34:38
33,Ancud,CL,-41.8697,-73.8203,51.01,93,0,5.75,clear sky,2021-03-15 03:27:21
34,Hambantota,LK,6.1241,81.1185,84.2,65,0,6.91,clear sky,2021-03-15 03:34:39
35,Sheopur,IN,25.6667,76.7,84.83,20,49,1.5,scattered clouds,2021-03-15 03:34:39
36,Puro,PH,12.4841,123.3827,84.02,72,25,3.56,scattered clouds,2021-03-15 03:34:39
37,Wawa,NG,9.9022,4.4192,79.43,59,87,3.78,overcast clouds,2021-03-15 03:34:40
38,Aquiraz,BR,-3.9014,-38.3911,82.0,78,40,6.91,scattered clouds,2021-03-15 03:34:40
39,Albany,US,42.6001,-73.9662,24.01,31,35,7.0,scattered clouds,2021-03-15 03:33:39
40,Puerto Ayora,EC,-0.7393,-90.3518,77.0,92,75,3.51,broken clouds,2021-03-15 03:34:41
41,Port Alfred,ZA,-33.5906,26.891,69.01,96,98,13.56,overcast clouds,2021-03-15 03:34:41
42,Saint-Philippe,RE,-21.3585,55.7679,77.0,78,90,4.61,light rain,2021-03-15 03:25:32
43,Neka,IR,36.6508,53.299,35.6,93,0,4.61,clear sky,2021-03-15 03:34:42
44,Thompson,CA,55.7435,-97.8558,26.6,39,75,9.22,broken clouds,2021-03-15 03:34:18
45,Port Elizabeth,ZA,-33.918,25.5701,68.0,94,100,3.44,light rain,2021-03-15 03:34:43
46,Cabo San Lucas,MX,22.8909,-109.9124,66.2,63,20,1.92,few clouds,2021-03-15 03:34:43
47,Castro,BR,-24.7911,-50.0119,62.8,88,21,2.57,few clouds,2021-03-15 03:20:18
48,Klaksvik,FO,62.2266,-6.589,37.4,81,40,11.5,scattered clouds,2021-03-15 03:21:37
49,Manaus,BR,-3.1019,-60.025,77.0,94,0,2.82,clear sky,2021-03-15 03:32:38
50,Damoh,IN,23.8333,79.45,86.27,17,0,6.78,clear sky,2021-03-15 03:34:44
51,Busselton,AU,-33.65,115.3333,75.99,41,0,7.0,clear sky,2021-03-15 03:25:38
52,Kaitangata,NZ,-46.2817,169.8464,57.6,91,100,8.08,overcast clouds,2021-03-15 03:25:25
53,Snezhnogorsk,RU,69.1933,33.2531,24.8,86,75,4.47,light snow,2021-03-15 03:34:45
54,Mahebourg,MU,-20.4081,57.7,77.0,94,75,2.3,moderate rain,2021-03-15 03:34:46
55,Constitucion,CL,-35.3333,-72.4167,56.32,88,93,1.77,overcast clouds,2021-03-15 03:34:46
56,Ilulissat,GL,69.2167,-51.1,12.2,52,100,8.05,overcast clouds,2021-03-15 03:25:14
57,Victoria,HK,22.2855,114.1577,79.0,60,20,4.61,few clouds,2021-03-15 03:26:11
58,Ludvika,SE,60.1496,15.1878,30.99,93,90,5.75,light snow,2021-03-15 03:34:47
59,Sechura,PE,-5.5569,-80.8222,78.28,69,98,10.96,overcast clouds,2021-03-15 03:32:30
60,Pevek,RU,69.7008,170.3133,-7.11,95,100,15.75,light snow,2021-03-15 03:23:08
61,Stawell,AU,-37.05,142.7667,68.79,52,72,5.53,broken clouds,2021-03-15 03:34:47
62,Maragogi,BR,-9.0122,-35.2225,76.44,80,99,6.35,overcast clouds,2021-03-15 03:34:48
63,Arraial Do Cabo,BR,-22.9661,-42.0278,76.3,86,99,16.6,overcast clouds,2021-03-15 03:34:48
64,Maracas,BR,-13.4411,-40.4308,60.8,96,29,5.37,scattered clouds,2021-03-15 03:34:49
65,Nikolskoye,RU,59.7035,30.7861,35.6,93,75,6.71,moderate rain,2021-03-15 03:25:05
66,Fairbanks,US,64.8378,-147.7164,15.8,56,1,3.09,clear sky,2021-03-15 03:31:02
67,Ahuimanu,US,21.4447,-157.8378,77.0,69,40,2.24,light rain,2021-03-15 03:34:49
68,Nanortalik,GL,60.1432,-45.2371,28.8,83,100,12.12,light snow,2021-03-15 03:25:57
69,Ayame,CI,5.6083,-3.1563,74.21,90,99,1.9,overcast clouds,2021-03-15 03:34:50
70,Hermanus,ZA,-34.4187,19.2345,61.0,95,91,1.01,moderate rain,2021-03-15 03:34:22
71,Bengkulu,ID,-3.8004,102.2655,85.8,63,7,1.88,clear sky,2021-03-15 03:21:29
72,Cape Town,ZA,-33.9258,18.4232,66.0,88,75,17.27,light rain,2021-03-15 03:33:53
73,Necochea,AR,-38.5473,-58.7368,57.0,94,0,1.99,clear sky,2021-03-15 03:34:51
74,Matara,LK,5.9485,80.5353,83.88,59,100,9.98,overcast clouds,2021-03-15 03:34:52
75,Konosha,RU,60.9736,40.257,30.4,97,100,7.02,overcast clouds,2021-03-15 03:34:52
76,Touros,BR,-5.1989,-35.4608,75.2,88,20,3.44,few clouds,2021-03-15 03:26:23
77,Viedma,AR,-40.8135,-62.9967,61.03,86,75,9.13,broken clouds,2021-03-15 03:30:25
78,Saintes,FR,45.6667,-0.75,42.8,93,90,6.91,overcast clouds,2021-03-15 03:34:53
79,Copiapo,CL,-27.3667,-70.3333,60.8,77,16,3.44,few clouds,2021-03-15 03:34:53
80,Shingu,JP,33.7333,135.9833,60.8,41,20,12.66,few clouds,2021-03-15 03:34:53
81,Derzhavinsk,KZ,51.1,66.3167,1.08,81,3,4.12,clear sky,2021-03-15 03:34:54
82,Barstow,US,34.8986,-117.0228,62.6,23,1,23.02,clear sky,2021-03-15 03:34:54
83,New Norfolk,AU,-42.7826,147.0587,71.01,41,20,3.0,few clouds,2021-03-15 03:34:55
84,Flinders,AU,-34.5833,150.8552,73.99,54,0,4.0,clear sky,2021-03-15 03:34:55
85,Pestovo,RU,58.5938,35.8024,34.65,97,100,7.61,overcast clouds,2021-03-15 03:34:55
86,Jijiga,ET,9.35,42.8,61.92,61,2,6.31,clear sky,2021-03-15 03:34:56
87,Pangnirtung,CA,66.1451,-65.7125,-18.42,88,4,1.68,clear sky,2021-03-15 03:22:13
88,Kenai,US,60.5544,-151.2583,19.99,86,90,8.05,light snow,2021-03-15 03:33:16
89,Hay River,CA,60.8156,-115.7999,3.2,78,100,12.66,light snow,2021-03-15 03:34:57
90,Jamestown,US,42.097,-79.2353,23.0,63,1,10.47,clear sky,2021-03-15 03:31:05
91,Port Said,EG,31.2565,32.2841,59.0,77,40,6.91,scattered clouds,2021-03-15 03:32:50
92,Atasu,KZ,48.6814,71.6433,2.46,88,98,5.17,overcast clouds,2021-03-15 03:34:57
93,Solnechnyy,RU,50.7214,136.6319,38.08,74,19,11.05,few clouds,2021-03-15 03:25:55
94,Alcala De Henares,ES,40.4821,-3.36,41.0,80,0,6.91,clear sky,2021-03-15 03:34:58
95,Bom Jesus,BR,-9.0744,-44.3586,72.72,85,32,1.12,scattered clouds,2021-03-15 03:34:58
96,Houma,US,29.5958,-90.7195,72.0,94,1,8.05,clear sky,2021-03-15 03:25:49
97,Namibe,AO,-15.1961,12.1522,75.52,83,100,4.34,overcast clouds,2021-03-15 03:34:59
98,Andenes,NO,69.3143,16.1194,34.0,69,75,11.5,broken clouds,2021-03-15 03:26:23
99,Carauari,BR,-4.8828,-66.8958,72.45,93,75,0.87,broken clouds,2021-03-15 03:35:00
100,Taltal,CL,-25.4,-70.4833,62.89,89,39,2.33,scattered clouds,2021-03-15 03:30:20
101,Hasaki,JP,35.7333,140.8333,64.0,38,40,6.91,scattered clouds,2021-03-15 03:35:00
102,Waggaman,US,29.9185,-90.2109,72.0,83,40,8.05,scattered clouds,2021-03-15 03:35:01
103,Padang,ID,-0.9492,100.3543,84.2,70,20,3.44,few clouds,2021-03-15 03:25:26
104,Pergamino,AR,-33.89,-60.5736,68.0,71,62,1.99,broken clouds,2021-03-15 03:33:10
105,Srednekolymsk,RU,67.45,153.6833,-5.49,90,19,8.12,few clouds,2021-03-15 03:25:53
106,Mount Isa,AU,-20.7333,139.5,86.0,48,40,11.5,scattered clouds,2021-03-15 03:35:02
107,Pichayevo,RU,53.2363,42.2032,25.3,91,73,14.97,broken clouds,2021-03-15 03:35:02
108,Atuona,PF,-9.8,-139.0333,80.42,69,7,10.6,clear sky,2021-03-15 03:33:55
109,Tessalit,ML,20.1986,1.0114,64.6,31,0,8.46,clear sky,2021-03-15 03:35:03
110,Meulaboh,ID,4.1363,96.1285,84.13,68,19,2.53,few clouds,2021-03-15 03:26:04
111,Neuquen,AR,-38.9516,-68.0591,69.8,60,0,4.61,clear sky,2021-03-15 03:32:03
112,Tiznit,MA,29.5833,-9.5,62.31,37,99,0.94,overcast clouds,2021-03-15 03:35:03
113,Sun City West,US,33.662,-112.3413,62.01,44,1,5.75,clear sky,2021-03-15 03:35:04
114,Westport,US,41.1415,-73.3579,30.99,34,1,20.71,clear sky,2021-03-15 03:25:30
115,Ndende,GA,-2.4008,11.3581,73.09,99,100,2.77,overcast clouds,2021-03-15 03:25:08
116,Nortelandia,BR,-14.4547,-56.8028,71.76,95,64,2.71,broken clouds,2021-03-15 03:35:05
117,Turinsk,RU,58.0458,63.696,13.66,88,3,10.51,clear sky,2021-03-15 03:35:05
118,Kahului,US,20.8947,-156.47,77.0,94,40,5.75,scattered clouds,2021-03-15 03:20:55
119,Vila,PT,42.0304,-8.1588,41.0,89,5,1.99,clear sky,2021-03-15 03:35:06
120,Bethel,US,41.3712,-73.414,30.2,31,1,14.97,clear sky,2021-03-15 03:35:06
121,Vardo,NO,70.3705,31.1107,26.6,93,75,4.61,light snow,2021-03-15 03:35:06
122,Manokwari,ID,-0.8667,134.0833,82.96,73,45,5.21,scattered clouds,2021-03-15 03:31:26
123,Caravelas,BR,-17.7125,-39.2481,73.98,84,0,4.56,clear sky,2021-03-15 03:25:17
124,Flin Flon,CA,54.7682,-101.865,31.35,80,26,12.33,scattered clouds,2021-03-15 03:35:07
125,Sao Raimundo Das Mangabeiras,BR,-7.0219,-45.4811,72.9,91,100,1.77,overcast clouds,2021-03-15 03:35:08
126,Victor Harbor,AU,-35.5667,138.6167,71.01,67,99,7.52,overcast clouds,2021-03-15 03:35:08
127,San Rafael,AR,-34.6177,-68.3301,73.85,55,100,8.46,overcast clouds,2021-03-15 03:35:08
128,Nome,US,64.5011,-165.4064,19.4,93,90,14.97,mist,2021-03-15 03:31:27
129,Carnarvon,AU,-24.8667,113.6333,87.8,62,0,10.36,clear sky,2021-03-15 03:25:26
130,Boende,CD,-0.2167,20.8667,70.72,99,100,3.15,light rain,2021-03-15 03:35:09
131,Sterling,US,39.0062,-77.4286,46.4,27,1,17.27,clear sky,2021-03-15 03:30:47
132,Karpathos,GR,35.507,27.2132,59.0,82,98,9.22,overcast clouds,2021-03-15 03:35:10
133,Yuryevets,RU,57.3201,43.1041,33.58,98,100,13.91,snow,2021-03-15 03:35:10
134,Enna,IT,37.5588,14.2892,37.0,80,1,11.01,clear sky,2021-03-15 03:35:11
135,Georgetown,MY,5.4112,100.3354,89.6,62,20,2.3,few clouds,2021-03-15 03:20:38
136,Mandalgovi,MN,45.7625,106.2708,17.56,29,12,13.15,few clouds,2021-03-15 03:26:33
137,Isabela,PH,6.7085,121.9711,87.8,62,20,6.91,few clouds,2021-03-15 03:35:11
138,Rudnogorsk,RU,57.2639,103.7519,10.9,85,52,9.04,broken clouds,2021-03-15 03:35:12
139,Saskylakh,RU,71.9167,114.0833,-20.94,92,96,4.03,overcast clouds,2021-03-15 03:25:34
140,Maniitsoq,GL,65.4167,-52.9,17.58,67,47,16.71,scattered clouds,2021-03-15 03:35:12
141,Sjenica,RS,43.2731,19.9994,34.27,98,100,1.9,overcast clouds,2021-03-15 03:35:13
142,Emerald,AU,-23.5333,148.1667,91.4,43,90,6.91,overcast clouds,2021-03-15 03:35:13
143,Aykhal,RU,66.0,111.5,-10.21,91,100,18.05,overcast clouds,2021-03-15 03:27:32
144,Port Macquarie,AU,-31.4333,152.9167,72.0,72,97,1.99,overcast clouds,2021-03-15 03:35:14
145,Catuday,PH,16.2923,119.8062,82.99,64,33,6.73,scattered clouds,2021-03-15 03:27:01
146,Blatna,CZ,49.4249,13.8818,34.0,99,44,1.99,scattered clouds,2021-03-15 03:35:14
147,Seymchan,RU,62.8833,152.4333,2.46,74,4,5.73,clear sky,2021-03-15 03:35:15
148,Iqaluit,CA,63.7506,-68.5145,-16.01,69,75,23.02,snow,2021-03-15 03:25:15
149,Severo-Kurilsk,RU,50.6789,156.125,36.19,85,10,4.52,clear sky,2021-03-15 03:26:36
150,Hirara,JP,24.8,125.2833,75.2,60,20,11.5,few clouds,2021-03-15 03:26:50
151,Saint George,US,37.1041,-113.5841,55.0,40,1,3.44,clear sky,2021-03-15 03:35:16
152,Luderitz,NA,-26.6481,15.1594,63.59,79,0,18.34,clear sky,2021-03-15 03:35:01
153,Poum,NC,-20.2333,164.0167,79.83,70,2,4.43,clear sky,2021-03-15 03:25:41
154,Padampur,IN,29.6833,73.6167,74.91,31,26,1.59,scattered clouds,2021-03-15 03:27:48
155,Leningradskiy,RU,69.3833,178.4167,1.51,93,100,12.03,light snow,2021-03-15 03:35:17
156,Ahipara,NZ,-35.1667,173.1667,68.9,77,69,4.25,broken clouds,2021-03-15 03:35:17
157,Todos Santos,MX,23.45,-110.2167,69.01,25,0,3.0,clear sky,2021-03-15 03:35:17
158,Hofn,IS,64.2539,-15.2082,35.22,77,100,7.27,overcast clouds,2021-03-15 03:25:44
159,Tiksi,RU,71.6872,128.8694,3.07,89,100,3.2,overcast clouds,2021-03-15 03:35:18
160,Talnakh,RU,69.4865,88.3972,-22.49,95,35,2.26,scattered clouds,2021-03-15 03:35:18
161,Banda Aceh,ID,5.5577,95.3222,86.41,61,19,9.55,few clouds,2021-03-15 03:35:19
162,Dunedin,NZ,-45.8742,170.5036,62.01,78,94,8.01,overcast clouds,2021-03-15 03:32:27
163,Byron Bay,AU,-28.65,153.6167,69.8,94,90,14.97,light rain,2021-03-15 03:35:19
164,Kita,ML,13.0349,-9.4895,69.66,21,20,2.59,few clouds,2021-03-15 03:35:20
165,Panjab,AF,34.388,67.0233,26.42,85,52,2.17,broken clouds,2021-03-15 03:35:20
166,Bafoulabe,ML,13.8065,-10.8321,74.97,19,0,2.19,clear sky,2021-03-15 03:27:21
167,Caohai,CN,26.8661,104.2841,61.77,49,41,1.72,scattered clouds,2021-03-15 03:35:21
168,Ourem,PT,39.6417,-8.5919,48.99,93,28,2.3,scattered clouds,2021-03-15 03:35:21
169,Geraldton,AU,-28.7667,114.6,95.0,16,44,21.85,scattered clouds,2021-03-15 03:22:56
170,Shahpur,IN,16.7,76.8333,84.87,20,0,7.74,clear sky,2021-03-15 03:35:22
171,Itarema,BR,-2.9248,-39.9167,76.93,86,10,6.93,clear sky,2021-03-15 03:35:22
172,Pilot Butte,CA,50.4668,-104.4178,42.01,48,100,18.41,overcast clouds,2021-03-15 03:35:23
173,Ponta Do Sol,PT,32.6667,-17.1,55.0,78,99,5.99,overcast clouds,2021-03-15 03:35:23
174,Bristol,US,41.8334,-71.1662,26.01,40,7,8.01,clear sky,2021-03-15 03:35:24
175,Lagoa,PT,39.05,-27.9833,59.41,90,36,10.89,scattered clouds,2021-03-15 03:25:58
176,Adrar,MR,20.5022,-10.0711,68.86,28,0,8.19,clear sky,2021-03-15 03:25:58
177,Hami,CN,42.8,93.45,49.91,31,100,5.86,overcast clouds,2021-03-15 03:24:40
178,Havoysund,NO,70.9963,24.6622,26.6,86,75,11.5,light snow,2021-03-15 03:35:25
179,Abonnema,NG,4.7084,6.7931,74.98,91,100,2.33,overcast clouds,2021-03-15 03:35:25
180,Olongapo,PH,14.8292,120.2828,87.8,51,75,11.5,broken clouds,2021-03-15 03:35:25
181,Sankt Florian,AT,48.2057,14.3784,35.6,93,75,4.61,broken clouds,2021-03-15 03:35:26
182,Hobart,AU,-42.8794,147.3294,71.01,40,40,19.57,scattered clouds,2021-03-15 03:32:02
183,Ponta Delgada,PT,37.7333,-25.6667,60.8,94,75,6.91,broken clouds,2021-03-15 03:31:01
184,Sitka,US,57.0531,-135.33,32.0,43,75,5.75,broken clouds,2021-03-15 03:24:23
185,Cernat,RO,45.95,26.0333,37.99,85,100,4.23,overcast clouds,2021-03-15 03:35:27
186,Butaritari,KI,3.0707,172.7902,81.63,78,9,13.67,light rain,2021-03-15 03:35:00
187,Husavik,IS,66.0449,-17.3389,14.0,85,0,3.44,clear sky,2021-03-15 03:35:27
188,Cayenne,GF,4.9333,-52.3333,78.01,100,90,9.93,overcast clouds,2021-03-15 03:26:43
189,Camocim,BR,-2.9022,-40.8411,75.76,90,2,6.73,clear sky,2021-03-15 03:35:20
190,Port Lincoln,AU,-34.7333,135.8667,68.49,63,99,7.38,overcast clouds,2021-03-15 03:35:28
191,Swan Hill,AU,-35.3378,143.5544,74.03,31,91,8.43,overcast clouds,2021-03-15 03:31:11
192,Okahandja,NA,-21.9833,16.9167,60.8,77,100,0.36,light rain,2021-03-15 03:35:29
193,Sal Rei,CV,16.1833,-22.9167,66.2,94,20,10.36,few clouds,2021-03-15 03:35:29
194,San Patricio,US,28.017,-97.5169,59.0,82,75,3.44,broken clouds,2021-03-15 03:35:29
195,Pacific Grove,US,36.6177,-121.9166,55.4,76,90,13.8,overcast clouds,2021-03-15 03:35:30
196,Janauba,BR,-15.8025,-43.3089,66.81,71,31,5.86,scattered clouds,2021-03-15 03:35:30
197,Nemuro,JP,43.3236,145.575,42.8,65,20,13.8,few clouds,2021-03-15 03:35:31
198,Dingle,PH,10.9995,122.6711,85.73,69,5,6.89,clear sky,2021-03-15 03:25:56
199,Oussouye,SN,12.485,-16.5469,73.4,88,0,5.55,clear sky,2021-03-15 03:32:02
200,Clyde River,CA,70.4692,-68.5914,-7.6,84,1,27.63,snow,2021-03-15 03:35:32
201,Korla,CN,41.7597,86.1469,55.06,31,38,14.41,scattered clouds,2021-03-15 03:24:17
202,Ananas,HT,19.2466,-71.9557,63.39,90,3,3.13,clear sky,2021-03-15 03:35:32
203,Vao,NC,-22.6667,167.4833,76.68,80,0,16.2,clear sky,2021-03-15 03:25:35
204,Gorontalo,ID,0.5412,123.0595,88.81,61,64,4.92,broken clouds,2021-03-15 03:35:33
205,Santa Helena De Goias,BR,-17.8136,-50.5969,70.14,83,98,1.05,overcast clouds,2021-03-15 03:35:11
206,Hennebont,FR,47.8051,-3.2734,50.0,87,90,10.36,overcast clouds,2021-03-15 03:35:34
207,Cherskiy,RU,68.75,161.3,-10.64,89,93,8.21,overcast clouds,2021-03-15 03:26:10
208,Linguere,SN,15.3953,-15.1193,75.2,29,0,4.61,clear sky,2021-03-15 03:35:34
209,San Alberto,CO,7.7611,-73.3922,77.52,77,100,4.34,overcast clouds,2021-03-15 03:35:34
210,Timra,SE,62.487,17.3257,33.01,100,90,2.3,overcast clouds,2021-03-15 03:35:35
211,Lompoc,US,34.6391,-120.4579,51.8,71,75,3.44,broken clouds,2021-03-15 03:26:34
212,College,US,64.8569,-147.8028,15.8,38,20,3.29,few clouds,2021-03-15 03:35:35
213,Mangan,IN,27.5167,88.5333,73.62,49,0,5.12,clear sky,2021-03-15 03:35:36
214,Asau,RO,46.4333,26.4,42.01,57,100,4.09,light rain,2021-03-15 03:35:36
215,Pasir Gudang,MY,1.4584,103.8805,87.8,62,75,11.5,broken clouds,2021-03-15 03:35:37
216,Buenavista,PH,8.9769,125.4089,89.28,62,11,2.91,few clouds,2021-03-15 03:35:37
217,Beloha,MG,-25.1667,45.05,72.01,78,0,10.6,clear sky,2021-03-15 03:35:37
218,Northam,GB,51.0333,-4.2167,48.0,93,5,17.0,clear sky,2021-03-15 03:26:43
219,Astoria,US,46.1879,-123.8313,44.01,70,75,13.8,broken clouds,2021-03-15 03:35:38
220,El Retorno,CO,2.3302,-72.6276,72.95,94,100,2.33,overcast clouds,2021-03-15 03:35:38
221,Katsuura,JP,35.1333,140.3,62.6,41,40,11.5,scattered clouds,2021-03-15 03:35:39
222,Bereda,ES,43.2686,-7.5406,39.0,100,43,1.01,scattered clouds,2021-03-15 03:35:39
223,Nanchang,CN,28.6833,115.8833,76.73,64,9,10.85,clear sky,2021-03-15 03:35:39
224,Cabra,ES,37.4725,-4.4421,44.6,76,0,3.44,clear sky,2021-03-15 03:35:40
225,Dvinskoy,RU,62.1535,45.1175,25.07,93,100,8.08,overcast clouds,2021-03-15 03:35:40
226,Kiunga,PG,-6.1219,141.2906,92.93,51,19,2.37,few clouds,2021-03-15 03:27:45
227,Bambous Virieux,MU,-20.3428,57.7575,77.0,94,75,2.3,moderate rain,2021-03-15 03:35:41
228,Gat,IL,31.61,34.7642,55.0,100,99,5.99,overcast clouds,2021-03-15 03:35:41
229,Hovd,MN,48.0056,91.6419,19.17,22,100,4.05,light snow,2021-03-15 03:27:36
230,Lebu,CL,-37.6167,-73.65,54.57,93,1,1.66,clear sky,2021-03-15 03:35:42
231,Faya,SA,18.3851,42.4509,59.0,41,0,3.02,clear sky,2021-03-15 03:35:42
232,Suratgarh,IN,29.3167,73.9,81.41,26,66,3.6,broken clouds,2021-03-15 03:35:43
233,Rio Grande,BR,-32.035,-52.0986,68.29,76,9,7.78,clear sky,2021-03-15 03:35:43
234,Chumikan,RU,54.7183,135.315,28.47,93,100,8.16,overcast clouds,2021-03-15 03:35:43
235,Half Moon Bay,US,37.4636,-122.4286,51.01,93,90,19.57,overcast clouds,2021-03-15 03:30:55
236,Torbay,CA,47.6666,-52.7314,27.0,93,90,5.75,snow,2021-03-15 03:25:59
237,Acapulco,MX,16.8634,-99.8901,78.8,78,20,3.44,few clouds,2021-03-15 03:33:20
238,Viljoenskroon,ZA,-27.2084,26.9485,51.01,90,0,4.74,clear sky,2021-03-15 03:35:44
239,Marsaxlokk,MT,35.8419,14.5431,55.4,62,40,24.16,scattered clouds,2021-03-15 03:35:45
240,Trincomalee,LK,8.5711,81.2335,82.71,65,21,11.3,few clouds,2021-03-15 03:35:45
241,Doka,SD,13.5167,35.7667,76.6,41,0,7.18,clear sky,2021-03-15 03:35:45
242,Rtishchevo,RU,52.2604,43.7874,21.69,90,100,14.67,overcast clouds,2021-03-15 03:35:46
243,Longyearbyen,SJ,78.2186,15.6401,-0.4,60,20,10.36,few clouds,2021-03-15 03:35:46
244,Musoma,TZ,-1.5,33.8,68.0,83,20,8.46,few clouds,2021-03-15 03:35:47
245,Ulaanbaatar,MN,47.9077,106.8832,12.2,48,0,17.9,clear sky,2021-03-15 03:25:31
246,Kadoma,JP,34.7333,135.5833,64.0,44,40,6.91,scattered clouds,2021-03-15 03:35:47
247,San Andres,CO,12.5847,-81.7006,80.6,74,20,10.36,few clouds,2021-03-15 03:31:19
248,Bowen,AU,-20.0167,148.2333,87.8,55,40,9.22,scattered clouds,2021-03-15 03:35:48
249,Domoni,KM,-12.2569,44.5319,80.87,79,92,3.29,light rain,2021-03-15 03:35:48
250,Avanigadda,IN,16.0215,80.9181,84.2,74,40,4.61,scattered clouds,2021-03-15 03:35:49
251,Evensk,RU,61.95,159.2333,1.44,78,30,0.13,scattered clouds,2021-03-15 03:35:49
252,Qaanaaq,GL,77.484,-69.3632,-6.86,59,99,8.72,overcast clouds,2021-03-15 03:35:45
253,Trenton,US,40.217,-74.7429,34.0,34,1,17.27,clear sky,2021-03-15 03:35:50
254,Lorengau,PG,-2.0226,147.2712,85.17,66,98,7.43,overcast clouds,2021-03-15 03:27:39
255,Pindamonhangaba,BR,-22.9239,-45.4617,69.8,88,90,2.3,overcast clouds,2021-03-15 03:35:50
256,Dhangadhi,NP,28.7079,80.5961,80.24,22,0,3.06,clear sky,2021-03-15 03:35:51
257,Norman Wells,CA,65.282,-126.8329,-5.8,77,75,6.91,light snow,2021-03-15 03:35:27
258,Sabha,LY,27.0377,14.4283,55.09,73,44,15.99,scattered clouds,2021-03-15 03:35:51
259,Smithers,CA,54.7804,-127.1743,30.2,47,40,10.36,scattered clouds,2021-03-15 03:35:07
260,Tabatinga,BR,-4.2525,-69.9381,77.0,100,75,3.44,moderate rain,2021-03-15 03:35:52
261,Inuvik,CA,68.3499,-133.7218,-7.6,77,98,6.91,overcast clouds,2021-03-15 03:32:09
262,Portland,US,45.5234,-122.6762,43.0,87,100,1.01,overcast clouds,2021-03-15 03:33:04
263,Iraga,PH,17.7015,121.6546,83.75,69,78,2.3,broken clouds,2021-03-15 03:35:52
264,Totness,SR,5.8833,-56.3167,76.66,89,100,10.13,overcast clouds,2021-03-15 03:35:53
265,Kitimat,CA,54.0524,-128.6534,30.2,80,75,4.61,broken clouds,2021-03-15 03:35:53
266,Faanui,PF,-16.4833,-151.75,83.14,74,28,10.27,scattered clouds,2021-03-15 03:35:54
267,Codrington,AU,-38.2667,141.9667,64.9,72,97,10.09,overcast clouds,2021-03-15 03:35:54
268,Kovdor,RU,67.5662,30.4758,22.37,96,100,1.45,overcast clouds,2021-03-15 03:32:31
269,Loukhi,RU,66.0764,33.0381,25.54,97,96,1.99,overcast clouds,2021-03-15 03:35:55
270,Shimoda,JP,34.6667,138.95,59.0,47,20,6.91,few clouds,2021-03-15 03:35:55
271,Alofi,NU,-19.0595,-169.9187,84.2,70,100,5.75,overcast clouds,2021-03-15 03:26:40
272,Port-Gentil,GA,-0.7193,8.7815,78.96,82,100,7.7,overcast clouds,2021-03-15 03:26:26
273,Nagorsk,RU,59.3172,50.8078,22.69,94,94,9.26,overcast clouds,2021-03-15 03:35:56
274,Airai,TL,-8.9266,125.4092,73.08,69,99,1.14,overcast clouds,2021-03-15 03:22:48
275,Rocha,UY,-34.4833,-54.3333,58.93,89,1,2.86,clear sky,2021-03-15 03:26:10
276,Seoul,KR,37.5683,126.9778,59.0,47,99,8.05,overcast clouds,2021-03-15 03:34:58
277,Ketchikan,US,55.3422,-131.6461,30.2,80,40,3.44,scattered clouds,2021-03-15 03:35:57
278,Tongzi,CN,28.7829,105.0877,77.63,45,29,4.25,scattered clouds,2021-03-15 03:35:58
279,Tabou,CI,4.423,-7.3528,77.25,89,100,5.3,light rain,2021-03-15 03:35:58
280,Chapais,CA,49.7834,-74.8492,-7.6,64,90,11.5,overcast clouds,2021-03-15 03:32:43
281,Batagay-Alyta,RU,67.8006,130.4114,3.83,70,69,4.74,broken clouds,2021-03-15 03:27:04
282,Kupang,ID,-10.1667,123.5833,86.0,74,20,6.91,few clouds,2021-03-15 03:35:59
283,Ippy,CF,6.2679,21.2247,68.09,91,100,3.67,overcast clouds,2021-03-15 03:36:00
284,Tasiilaq,GL,65.6145,-37.6368,24.8,54,90,26.46,light snow,2021-03-15 03:36:00
285,Saint-Louis,SN,16.3333,-15.0,73.4,28,0,8.14,clear sky,2021-03-15 03:36:00
286,Yulara,AU,-25.2406,130.9889,75.2,20,0,19.57,clear sky,2021-03-15 03:36:01
287,Vradiyivka,UA,47.862,30.5919,36.66,95,100,8.03,overcast clouds,2021-03-15 03:36:01
288,Hamilton,US,39.1834,-84.5333,46.4,36,1,14.97,clear sky,2021-03-15 03:27:41
289,Kudahuvadhoo,MV,2.6708,72.8944,83.44,69,96,7.11,overcast clouds,2021-03-15 03:36:02
290,Mogadishu,SO,2.0371,45.3438,79.68,82,92,10.65,overcast clouds,2021-03-15 03:24:04
291,Akdepe,TM,42.0551,59.3788,17.6,86,100,6.91,overcast clouds,2021-03-15 03:36:03
292,San Cristobal,VE,7.7669,-72.225,77.0,78,75,5.75,broken clouds,2021-03-15 03:36:03
293,Goderich,CA,43.7501,-81.7165,26.6,50,0,6.91,clear sky,2021-03-15 03:36:03
294,Vila Velha,BR,-20.3297,-40.2925,77.0,83,0,2.3,clear sky,2021-03-15 03:36:04
295,Dzhebariki-Khaya,RU,62.2167,135.8,17.44,80,100,3.2,overcast clouds,2021-03-15 03:36:04
296,Cooma,AU,-36.2333,149.1333,62.6,45,0,10.36,clear sky,2021-03-15 03:36:05
297,San Quintin,MX,30.4833,-115.95,54.28,84,74,15.75,broken clouds,2021-03-15 03:35:02
298,Dikson,RU,73.5069,80.5464,-23.46,97,100,12.3,overcast clouds,2021-03-15 03:36:05
299,Chuchkovo,RU,54.2693,41.4465,26.24,91,97,15.21,light snow,2021-03-15 03:36:06
300,Toma,BF,12.7667,-2.8833,72.1,25,1,2.53,clear sky,2021-03-15 03:36:06
301,Santa Cruz,BO,-17.8,-63.1667,71.6,94,75,2.3,broken clouds,2021-03-15 03:36:06
302,Peleduy,RU,59.6289,112.7406,11.23,85,84,13.18,broken clouds,2021-03-15 03:36:07
303,Souillac,MU,-20.5167,57.5167,77.0,94,75,2.3,moderate rain,2021-03-15 03:26:49
304,Sao Felix Do Xingu,BR,-6.6447,-51.995,70.65,97,80,0.36,broken clouds,2021-03-15 03:35:52
305,Bulnes,CL,-36.7423,-72.2985,55.4,100,2,4.61,clear sky,2021-03-15 03:36:07
306,Belmonte,BR,-15.8631,-38.8828,73.4,88,20,2.3,few clouds,2021-03-15 03:26:14
307,Mus,TR,39.0,41.75,24.71,96,100,4.97,light snow,2021-03-15 03:36:08
308,Bradford,GB,53.7939,-1.7521,45.0,49,37,3.0,scattered clouds,2021-03-15 03:36:08
309,Puerto Penasco,MX,31.3167,-113.5333,57.99,75,11,1.99,few clouds,2021-03-15 03:36:09
310,Terrace,CA,54.5163,-128.6035,30.2,80,75,4.61,broken clouds,2021-03-15 03:32:21
311,Mvuma,ZW,-19.2792,30.5283,56.64,95,43,6.24,scattered clouds,2021-03-15 03:36:09
312,Basco,PH,20.4487,121.9702,76.21,81,66,21.41,broken clouds,2021-03-15 03:36:10
313,Ilanskiy,RU,56.2358,96.065,12.69,74,100,3.33,overcast clouds,2021-03-15 03:36:10
314,Omboue,GA,-1.5746,9.2618,76.55,89,100,8.23,overcast clouds,2021-03-15 03:24:39
315,Uyuni,BO,-20.4597,-66.825,52.16,60,76,12.08,broken clouds,2021-03-15 03:36:11
316,Brownwood,US,31.7093,-98.9912,51.8,46,1,9.93,clear sky,2021-03-15 03:36:11
317,Lannion,FR,48.75,-3.4167,50.0,87,90,19.57,overcast clouds,2021-03-15 03:36:11
318,Lerwick,GB,60.1545,-1.1494,41.0,87,40,8.05,scattered clouds,2021-03-15 03:36:12
319,Coihaique,CL,-45.5752,-72.0662,51.67,95,22,5.23,few clouds,2021-03-15 03:36:12
320,Jiblah,YE,13.9216,44.1467,62.11,33,22,5.37,few clouds,2021-03-15 03:36:13
321,Sola,VU,-13.8833,167.55,87.8,74,75,4.61,broken clouds,2021-03-15 03:35:53
322,Ouango,CF,4.3133,22.5552,71.06,94,100,3.49,overcast clouds,2021-03-15 03:36:13
323,Aksu,CN,41.1231,80.2644,59.68,23,30,4.38,scattered clouds,2021-03-15 03:36:14
324,Zwickau,DE,50.7167,12.4833,36.0,82,88,9.82,overcast clouds,2021-03-15 03:36:14
325,Quimper,FR,48.0,-4.1,50.0,87,90,13.8,overcast clouds,2021-03-15 03:36:15
326,Lufilufi,WS,-13.8745,-171.5986,91.4,70,40,12.66,scattered clouds,2021-03-15 03:36:15
327,Durban,ZA,-29.8579,31.0292,75.0,88,0,6.91,clear sky,2021-03-15 03:36:15
328,Upernavik,GL,72.7868,-56.1549,-7.73,99,99,6.29,overcast clouds,2021-03-15 03:36:16
329,Prado,BR,-17.3411,-39.2208,74.3,84,0,4.25,clear sky,2021-03-15 03:35:32
330,Pishin,PK,30.5803,66.9961,61.02,26,27,1.95,scattered clouds,2021-03-15 03:36:16
331,Christchurch,NZ,-43.5333,172.6333,73.0,49,100,9.22,overcast clouds,2021-03-15 03:35:20
332,Juneau,US,58.3019,-134.4197,26.6,50,90,12.66,overcast clouds,2021-03-15 03:36:17
333,Hualmay,PE,-11.0964,-77.6139,72.9,75,92,4.18,overcast clouds,2021-03-15 03:36:18
334,Pochutla,MX,15.7432,-96.4661,78.01,83,0,3.78,clear sky,2021-03-15 03:36:18
335,Wanaka,NZ,-44.7,169.15,64.0,87,95,1.01,overcast clouds,2021-03-15 03:36:18
336,Chuy,UY,-33.6971,-53.4616,62.42,82,0,2.93,clear sky,2021-03-15 03:36:19
337,Stellenbosch,ZA,-33.9346,18.8668,60.8,88,75,17.27,light rain,2021-03-15 03:36:19
338,Brainerd,US,46.358,-94.2008,28.4,46,1,9.22,clear sky,2021-03-15 03:32:23
339,Lima,PE,-12.0432,-77.0282,77.0,73,0,8.05,clear sky,2021-03-15 03:32:57
340,Namatanai,PG,-3.6667,152.4333,84.29,65,95,5.61,overcast clouds,2021-03-15 03:23:12
341,Bairnsdale,AU,-37.8333,147.6167,73.99,48,1,1.99,clear sky,2021-03-15 03:36:20
342,Lebane,RS,42.9239,21.7375,46.4,76,20,1.14,few clouds,2021-03-15 03:36:20
343,Malakal,SS,9.5334,31.6605,83.71,35,88,1.77,overcast clouds,2021-03-15 03:36:21
344,Yumen,CN,40.2833,97.2,40.82,20,55,20.96,broken clouds,2021-03-15 03:34:23
345,Pangkalanbuun,ID,-2.6833,111.6167,94.96,45,67,1.21,broken clouds,2021-03-15 03:35:05
346,Dali,CN,25.7,100.1833,67.89,32,0,6.22,clear sky,2021-03-15 03:36:22
347,Isangel,VU,-19.55,169.2667,78.8,94,75,7.25,broken clouds,2021-03-15 03:36:13
348,Sur,OM,22.5667,59.5289,80.58,41,0,5.08,clear sky,2021-03-15 03:31:38
349,Lahaina,US,20.8783,-156.6825,77.0,94,40,5.75,scattered clouds,2021-03-15 03:35:22
350,Salinopolis,BR,-0.6136,-47.3561,77.85,86,2,5.44,clear sky,2021-03-15 03:36:23
351,Abomey,BJ,7.1829,1.9912,77.09,77,98,6.55,overcast clouds,2021-03-15 03:36:23
352,Grindavik,IS,63.8424,-22.4338,37.4,93,75,9.22,broken clouds,2021-03-15 03:27:31
353,Trairi,BR,-3.2778,-39.2689,75.76,89,1,4.34,clear sky,2021-03-15 03:36:24
354,Birao,CF,10.2849,22.7882,74.93,21,68,4.85,broken clouds,2021-03-15 03:36:24
355,Tisul,RU,55.7611,88.3122,13.35,81,100,7.45,overcast clouds,2021-03-15 03:36:24
356,Veliki Crljeni,RS,44.4675,20.2844,44.01,100,90,11.5,overcast clouds,2021-03-15 03:36:25
357,Broken Hill,AU,-31.95,141.4333,71.6,26,0,14.97,clear sky,2021-03-15 03:36:25
358,Obo,CF,5.3998,26.4869,67.33,91,86,2.77,overcast clouds,2021-03-15 03:36:26
359,Taoudenni,ML,22.6783,-3.9836,69.28,37,93,12.8,overcast clouds,2021-03-15 03:36:26
360,Sao Joao Da Barra,BR,-21.6403,-41.0511,75.74,90,46,11.1,scattered clouds,2021-03-15 03:36:26
361,Piacabucu,BR,-10.4056,-36.4344,76.28,77,100,5.14,overcast clouds,2021-03-15 03:36:27
362,El Alto,PE,-4.2714,-81.2147,75.6,75,99,6.55,overcast clouds,2021-03-15 03:31:57
363,Vicksburg,US,32.3526,-90.8779,75.2,73,90,13.8,overcast clouds,2021-03-15 03:36:27
364,Ziniare,BF,12.5822,-1.2983,78.8,25,24,3.44,few clouds,2021-03-15 03:36:28
365,Pombas,CV,17.1503,-25.0201,68.0,77,20,21.85,few clouds,2021-03-15 03:36:28
366,Ambilobe,MG,-13.2,49.05,75.88,91,18,1.92,few clouds,2021-03-15 03:36:29
367,Vestmannaeyjar,IS,63.4427,-20.2734,40.66,87,100,21.09,overcast clouds,2021-03-15 03:31:53
368,Marystown,CA,47.1666,-55.1483,26.13,79,100,10.02,overcast clouds,2021-03-15 03:32:08
369,Sistranda,NO,63.7256,8.834,35.6,100,75,9.22,light rain,2021-03-15 03:36:29
370,Yankton,US,42.8711,-97.3973,32.0,100,90,17.27,light snow,2021-03-15 03:31:59
371,Big Spring,US,32.2504,-101.4787,57.99,26,1,14.97,clear sky,2021-03-15 03:36:30
372,Khorramshahr,IR,30.4397,48.1664,53.6,62,0,3.89,clear sky,2021-03-15 03:36:30
373,Mwene-Ditu,CD,-7.0,23.45,63.3,97,84,3.8,broken clouds,2021-03-15 03:36:31
374,Beringovskiy,RU,63.05,179.3167,9.1,87,100,10.87,overcast clouds,2021-03-15 03:36:31
375,Sovetskiy,RU,61.3614,63.5842,13.21,88,49,9.35,scattered clouds,2021-03-15 03:36:32
376,Tuatapere,NZ,-46.1333,167.6833,57.99,77,80,14.0,broken clouds,2021-03-15 03:34:51
377,Mahon,ES,39.8885,4.2658,51.8,71,40,12.66,scattered clouds,2021-03-15 03:36:32
378,Solms,DE,50.7667,9.6,37.99,91,100,11.61,overcast clouds,2021-03-15 03:36:33
379,Malazgirt,TR,39.1427,42.5401,27.63,83,100,2.04,overcast clouds,2021-03-15 03:36:33
380,Jalu,LY,29.0331,21.5482,55.27,55,0,8.34,clear sky,2021-03-15 03:36:33
381,Svetlyy,RU,54.675,20.1347,37.4,87,75,11.18,broken clouds,2021-03-15 03:36:34
382,Catia La Mar,VE,10.6038,-67.0303,68.0,87,65,10.36,broken clouds,2021-03-15 03:36:34
383,Abu Kamal,SY,34.4506,40.9171,58.77,37,97,8.55,overcast clouds,2021-03-15 03:36:34
384,Banjar,ID,-8.19,114.9675,86.0,74,40,3.44,scattered clouds,2021-03-15 03:36:35
385,Saint-Augustin,CA,51.226,-58.6502,2.93,82,100,15.08,overcast clouds,2021-03-15 03:36:35
386,Harper,LR,4.375,-7.7169,78.17,87,100,5.86,light rain,2021-03-15 03:36:36
387,Nola,IT,40.922,14.5329,45.0,61,0,6.91,clear sky,2021-03-15 03:26:52
388,Arkadelphia,US,34.1209,-93.0538,55.4,100,90,1.54,light rain,2021-03-15 03:36:36
389,Raga,SS,8.4596,25.678,73.8,69,93,7.27,overcast clouds,2021-03-15 03:35:43
390,Motygino,RU,58.1831,94.7592,6.78,93,100,5.73,overcast clouds,2021-03-15 03:36:37
391,Cabo Rojo,PR,18.0866,-67.1457,75.0,81,75,11.34,broken clouds,2021-03-15 03:36:37
392,Srandakan,ID,-7.9386,110.2506,87.53,65,86,5.59,overcast clouds,2021-03-15 03:36:38
393,Silvania,BR,-16.6589,-48.6081,69.8,100,75,10.36,fog,2021-03-15 03:36:38
394,Lavrentiya,RU,65.5833,-171.0,24.06,92,100,15.32,light snow,2021-03-15 03:23:31
395,Blagoyevo,RU,63.3667,47.9167,21.42,96,99,6.08,overcast clouds,2021-03-15 03:27:17
396,Ucluelet,CA,48.9329,-125.5528,41.0,66,26,5.99,scattered clouds,2021-03-15 03:36:39
397,Cidreira,BR,-30.1811,-50.2056,72.55,86,44,6.11,scattered clouds,2021-03-15 03:35:54
398,Polunochnoye,RU,60.8697,60.4153,14.92,84,65,6.17,broken clouds,2021-03-15 03:36:39
399,Revelstoke,CA,50.9832,-118.2023,37.4,81,90,4.61,overcast clouds,2021-03-15 03:36:40
400,Tomball,US,30.0972,-95.6161,59.0,88,90,5.75,overcast clouds,2021-03-15 03:36:40
401,Naze,JP,28.3667,129.4833,69.8,56,20,8.05,few clouds,2021-03-15 03:22:13
402,Salalah,OM,17.0151,54.0924,69.8,49,0,4.61,clear sky,2021-03-15 03:27:18
403,Yerbogachen,RU,61.2767,108.0108,10.11,91,100,13.6,light snow,2021-03-15 03:27:23
404,Walvis Bay,NA,-22.9575,14.5053,61.0,94,58,4.61,broken clouds,2021-03-15 03:36:41
405,Sindor,RU,62.8629,51.8905,21.18,94,98,7.43,overcast clouds,2021-03-15 03:36:42
406,Mango,US,27.9797,-82.3065,69.01,88,1,2.68,clear sky,2021-03-15 03:36:42
407,Carutapera,BR,-1.195,-46.02,75.4,92,0,2.91,clear sky,2021-03-15 03:36:42
408,Omis,HR,43.4447,16.6886,44.6,61,90,13.8,overcast clouds,2021-03-15 03:36:43
409,Nevers,FR,46.9167,3.3333,41.0,97,100,3.0,overcast clouds,2021-03-15 03:36:43
410,Conceicao Do Mato Dentro,BR,-19.0372,-43.425,61.66,96,99,0.43,overcast clouds,2021-03-15 03:36:43
411,Mezoszilas,HU,46.8111,18.4779,39.0,63,100,15.99,light rain,2021-03-15 03:36:44
412,Okakarara,NA,-20.5833,17.4333,62.96,72,14,0.94,few clouds,2021-03-15 03:26:48
413,Pathein,MM,16.7833,94.7333,97.07,18,65,8.55,broken clouds,2021-03-15 03:36:44
414,Ferme-Neuve,CA,46.7001,-75.4493,8.6,52,100,14.97,overcast clouds,2021-03-15 03:36:45
415,Newark,US,40.7357,-74.1724,34.0,27,40,29.93,scattered clouds,2021-03-15 03:34:30
416,Fortuna,US,40.5982,-124.1573,41.0,95,100,2.51,light rain,2021-03-15 03:35:18
417,Lusambo,CD,-4.9667,23.45,69.57,96,82,1.48,broken clouds,2021-03-15 03:36:46
418,Lev Tolstoy,RU,53.2134,39.446,34.0,76,100,15.97,snow,2021-03-15 03:36:46
419,Koygorodok,RU,60.445,50.9968,20.17,94,99,7.58,overcast clouds,2021-03-15 03:36:46
420,Pisco,PE,-13.7,-76.2167,77.0,65,0,3.44,clear sky,2021-03-15 03:36:47
421,Lasa,IT,46.6166,10.7002,30.0,100,90,3.44,light snow,2021-03-15 03:36:47
422,Ust-Tsilma,RU,65.441,52.1498,26.22,95,100,7.83,light snow,2021-03-15 03:36:47
423,Puerto Escondido,MX,15.85,-97.0667,78.8,78,40,5.7,scattered clouds,2021-03-15 03:36:48
424,Douglas,US,41.3,-96.167,42.01,93,90,18.41,moderate rain,2021-03-15 03:36:48
425,Excelsior Springs,US,39.3392,-94.2261,44.01,93,90,9.22,moderate rain,2021-03-15 03:36:49
426,Bandarbeyla,SO,9.4942,50.8122,78.15,76,99,10.11,overcast clouds,2021-03-15 03:23:12
427,Najran,SA,17.4924,44.1277,59.0,44,2,2.3,dust,2021-03-15 03:36:49
428,Sassandra,CI,4.95,-6.0833,77.49,88,100,6.04,overcast clouds,2021-03-15 03:36:50
429,Selikhino,RU,50.3672,137.4996,39.25,79,0,8.28,clear sky,2021-03-15 03:36:50
430,La Cruz,MX,23.9167,-106.9,57.0,89,0,8.88,clear sky,2021-03-15 03:36:50
431,Guerrero Negro,MX,27.9769,-114.0611,56.66,76,63,17.13,broken clouds,2021-03-15 03:36:51
432,Cody,US,44.5263,-109.0565,41.0,48,1,13.8,clear sky,2021-03-15 03:32:10
433,Deoli,IN,25.75,75.3833,82.31,17,42,6.2,scattered clouds,2021-03-15 03:36:51
434,Whitehorse,CA,60.7161,-135.0538,8.6,52,20,10.36,few clouds,2021-03-15 03:36:52
435,Gravelbourg,CA,49.8834,-106.5512,39.65,57,100,16.46,overcast clouds,2021-03-15 03:36:52
436,Ko Samui,TH,9.5357,99.9357,86.0,62,20,13.8,few clouds,2021-03-15 03:36:52
437,Bonnyville,CA,54.2668,-110.735,44.6,57,20,8.05,few clouds,2021-03-15 03:36:53
438,Lebanon,US,36.2081,-86.2911,59.0,31,90,4.61,overcast clouds,2021-03-15 03:35:19
439,Lumeje,AO,-11.55,20.7833,64.0,95,100,3.02,overcast clouds,2021-03-15 03:36:54
440,Kharan,PK,28.5833,65.4167,68.81,33,0,6.02,clear sky,2021-03-15 03:36:54
441,Tilichiki,RU,60.4667,166.1,4.41,85,77,0.63,broken clouds,2021-03-15 03:36:54
442,Mehamn,NO,71.0357,27.8492,30.33,93,100,21.39,light snow,2021-03-15 03:36:55
443,Benguela,AO,-12.5763,13.4055,79.93,80,100,3.94,overcast clouds,2021-03-15 03:35:16
444,The Valley,AI,18.217,-63.0578,77.0,73,20,2.3,few clouds,2021-03-15 03:36:55
445,Matamoros,MX,25.5333,-103.25,69.8,9,1,3.74,clear sky,2021-03-15 03:36:56
446,Little Current,CA,45.9793,-81.9248,21.2,30,0,4.61,clear sky,2021-03-15 03:36:56
447,Kailua,US,21.4022,-157.7394,77.0,69,40,2.64,light rain,2021-03-15 03:36:56
448,Tias,ES,28.9611,-13.645,60.8,82,0,5.75,clear sky,2021-03-15 03:36:57
449,Bonoua,CI,5.2741,-3.595,77.0,88,20,3.44,few clouds,2021-03-15 03:36:57
450,Turukhansk,RU,65.8167,87.9833,8.89,94,100,6.62,light snow,2021-03-15 03:25:33
451,Henties Bay,NA,-22.116,14.2845,61.0,95,21,7.27,few clouds,2021-03-15 03:36:58
452,Ponta Pora,BR,-22.5361,-55.7256,67.73,87,91,4.21,overcast clouds,2021-03-15 03:36:58
453,Kruisfontein,ZA,-34.0033,24.7314,68.0,96,100,1.99,moderate rain,2021-03-15 03:34:53
454,Soyo,AO,-6.1349,12.3689,80.1,81,100,6.31,overcast clouds,2021-03-15 03:36:59
455,Betamcherla,IN,15.4667,78.1667,83.8,29,0,8.28,clear sky,2021-03-15 03:36:59
456,Mount Gambier,AU,-37.8333,140.7667,68.0,68,75,12.66,broken clouds,2021-03-15 03:37:00
457,Kapasan,ID,-6.7773,111.3789,85.75,67,74,4.29,broken clouds,2021-03-15 03:37:00
458,Chervonohryhorivka,UA,47.623,34.5389,35.6,87,0,4.47,clear sky,2021-03-15 03:37:01
459,Thunder Bay,CA,48.4001,-89.3168,21.2,58,1,6.91,clear sky,2021-03-15 03:36:00
460,Tigil,RU,57.8,158.6667,22.86,87,100,15.73,overcast clouds,2021-03-15 03:37:01
461,Acajutla,SV,13.5928,-89.8275,73.0,77,2,1.01,clear sky,2021-03-15 03:33:14
462,Camacha,PT,33.0833,-16.3333,60.8,72,20,6.91,few clouds,2021-03-15 03:37:02
463,Jiuquan,CN,39.7432,98.5174,42.04,25,0,14.52,clear sky,2021-03-15 03:27:08
464,Okhotsk,RU,59.3833,143.3,13.69,84,100,8.39,overcast clouds,2021-03-15 03:37:02
465,Esperance,AU,-33.8667,121.9,71.6,37,64,11.5,broken clouds,2021-03-15 03:37:03
466,Muscat,OM,23.6139,58.5922,75.16,77,17,4.23,few clouds,2021-03-15 03:37:03
467,Kodiak,US,57.79,-152.4072,35.6,60,1,12.66,clear sky,2021-03-15 03:37:03
468,Kavaratti,IN,10.5669,72.642,82.9,67,15,5.5,few clouds,2021-03-15 03:27:41
469,Vanavara,RU,60.34,102.2797,9.86,88,100,12.88,overcast clouds,2021-03-15 03:36:17
470,Jimeta,NG,9.2833,12.4667,79.52,57,95,7.16,overcast clouds,2021-03-15 03:37:04
471,La Ronge,CA,55.1001,-105.2842,41.0,60,20,12.66,few clouds,2021-03-15 03:37:05
472,Tongliao,CN,43.6125,122.2653,38.97,20,25,27.25,scattered clouds,2021-03-15 03:37:05
473,Tarko-Sale,RU,64.9225,77.785,14.68,93,93,12.03,overcast clouds,2021-03-15 03:37:06
474,Chapada Dos Guimaraes,BR,-15.4606,-55.7497,77.0,94,40,3.02,scattered clouds,2021-03-15 03:37:06
475,Inta,RU,66.0317,60.1659,19.09,86,100,19.37,overcast clouds,2021-03-15 03:37:06
476,Komsomolskiy,UZ,40.4272,71.7189,30.2,74,75,2.3,broken clouds,2021-03-15 03:37:07
477,Kutum,SD,14.2,24.6667,63.5,11,0,3.74,clear sky,2021-03-15 03:37:07
478,Kieta,PG,-6.2167,155.6333,83.66,68,72,4.23,light rain,2021-03-15 03:37:07
479,Militello In Val Di Catania,IT,37.2748,14.7934,48.99,76,0,8.05,clear sky,2021-03-15 03:37:08
480,Machico,PT,32.7,-16.7667,60.8,67,40,10.36,scattered clouds,2021-03-15 03:37:08
481,Nador,MA,35.174,-2.9287,53.6,87,20,5.19,few clouds,2021-03-15 03:37:09
482,Borisoglebskiy,RU,57.2586,39.1508,35.6,87,90,8.95,light rain,2021-03-15 03:37:09
483,Buluang,PH,13.3068,123.3425,85.17,70,56,6.33,broken clouds,2021-03-15 03:37:09
484,Labuhan,ID,-6.8844,112.2051,83.82,73,86,6.06,overcast clouds,2021-03-15 03:37:10
485,Lamu,KE,-2.2717,40.902,77.0,88,20,5.06,few clouds,2021-03-15 03:37:10
486,Port Blair,IN,11.6667,92.75,84.2,84,20,6.91,mist,2021-03-15 03:36:21
487,Elizabeth City,US,36.2946,-76.2511,55.0,37,1,6.91,clear sky,2021-03-15 03:37:11
488,Lewiston,US,44.1003,-70.2148,17.6,49,20,17.27,few clouds,2021-03-15 03:37:11
489,Del Rio,US,29.3627,-100.8968,68.0,17,1,6.91,clear sky,2021-03-15 03:37:12
490,Yar-Sale,RU,66.8333,70.8333,11.52,95,98,3.62,overcast clouds,2021-03-15 03:34:27
491,Manavalakurichi,IN,8.1333,77.3,87.8,55,20,3.44,haze,2021-03-15 03:37:12
492,Mitsamiouli,KM,-11.3847,43.2844,82.0,74,87,5.79,overcast clouds,2021-03-15 03:37:13
493,Kavieng,PG,-2.5744,150.7967,84.78,67,92,10.65,overcast clouds,2021-03-15 03:36:10
494,Tazovskiy,RU,67.4667,78.7,-0.72,96,98,5.53,overcast clouds,2021-03-15 03:37:13
495,Karratha,AU,-20.7377,116.8463,90.61,44,57,23.13,broken clouds,2021-03-15 03:27:27
496,Galveston,US,29.3669,-94.9669,64.99,88,90,8.05,overcast clouds,2021-03-15 03:37:14
497,Waipawa,NZ,-41.4122,175.5153,68.0,68,55,23.02,broken clouds,2021-03-15 03:37:14
498,Vila Franca Do Campo,PT,37.7167,-25.4333,60.8,94,75,6.91,broken clouds,2021-03-15 03:37:14
499,Whitecourt,CA,54.1502,-115.6855,35.6,75,90,2.3,overcast clouds,2021-03-15 03:37:10
500,Quatre Cocos,MU,-20.2078,57.7625,77.0,94,75,2.3,moderate rain,2021-03-15 03:36:00
501,Egvekinot,RU,66.3167,-179.1667,5.54,97,100,1.48,overcast clouds,2021-03-15 03:37:15
502,Tura,IN,25.5198,90.2201,85.28,27,0,5.99,clear sky,2021-03-15 03:37:16
503,Narsipatnam,IN,17.6667,82.6167,77.0,94,20,2.3,mist,2021-03-15 03:37:16
504,Coronado,US,32.6859,-117.1831,57.2,67,75,4.61,broken clouds,2021-03-15 03:37:17
505,Ostersund,SE,63.1792,14.6357,26.6,100,20,6.91,light snow,2021-03-15 03:37:17
506,Ocos,GT,14.5094,-92.1933,77.0,88,75,7.38,broken clouds,2021-03-15 03:37:18
507,Hobyo,SO,5.3505,48.5268,80.06,79,100,17.9,light rain,2021-03-15 03:37:18
508,Grand Gaube,MU,-20.0064,57.6608,75.99,93,83,1.99,heavy intensity rain,2021-03-15 03:37:18
509,Sobolevo,RU,54.4299,31.8996,33.87,95,98,10.22,overcast clouds,2021-03-15 03:37:19
510,Yukhnov,RU,54.7444,35.2297,35.28,97,100,9.98,light rain,2021-03-15 03:37:19
511,Luziania,BR,-16.2525,-47.9503,66.2,94,75,5.75,moderate rain,2021-03-15 03:37:20
512,Zhezkazgan,KZ,47.8043,67.7144,5.83,77,21,5.97,few clouds,2021-03-15 03:37:20
513,Coahuayana,MX,18.7333,-103.6833,71.56,92,18,2.77,few clouds,2021-03-15 03:37:20
514,Itapirapua,BR,-15.8233,-50.6133,69.46,90,76,2.8,broken clouds,2021-03-15 03:37:21
515,Buala,SB,-8.145,159.5921,84.16,64,71,3.27,light rain,2021-03-15 03:37:21
516,Bayji,IQ,34.9311,43.487,59.25,55,94,2.37,overcast clouds,2021-03-15 03:33:02
517,Sergeyevka,KZ,53.88,67.4158,4.78,89,8,9.73,clear sky,2021-03-15 03:37:22
518,Sultanpur,IN,26.2667,82.0667,87.17,16,0,8.25,clear sky,2021-03-15 03:37:22
519,Malacatepec,MX,18.9333,-98.3,65.53,40,1,2.17,clear sky,2021-03-15 03:37:22
520,Sibi,PK,29.5448,67.8764,83.66,19,34,2.3,scattered clouds,2021-03-15 03:32:33
521,Zhangjiakou,CN,40.81,114.8794,37.45,18,41,17.74,scattered clouds,2021-03-15 03:37:23
522,Nalhati,IN,24.3,87.8167,88.75,26,0,6.04,clear sky,2021-03-15 03:37:23
523,Bima,ID,-8.4667,118.7167,87.44,69,64,4.72,broken clouds,2021-03-15 03:37:24
524,Denpasar,ID,-8.65,115.2167,86.0,74,40,3.44,scattered clouds,2021-03-15 03:34:57
525,Adeje,ES,28.1227,-16.726,63.0,77,20,2.3,few clouds,2021-03-15 03:37:24
526,Barranca,PE,-10.75,-77.7667,71.89,75,99,3.11,overcast clouds,2021-03-15 03:37:25
527,Serro,BR,-18.6047,-43.3794,60.24,96,99,0.45,overcast clouds,2021-03-15 03:37:25
528,Batemans Bay,AU,-35.7167,150.1833,68.0,52,19,1.99,few clouds,2021-03-15 03:35:22
529,Alyangula,AU,-13.8483,136.4192,77.0,100,75,3.44,heavy intensity rain,2021-03-15 03:37:26
530,Qaqortoq,GL,60.7167,-46.0333,37.4,44,90,43.73,light snow,2021-03-15 03:36:31
531,Saldanha,ZA,-33.0117,17.9442,60.8,88,76,19.57,light rain,2021-03-15 03:37:26
532,Haines Junction,CA,60.7522,-137.5108,3.2,55,26,3.4,scattered clouds,2021-03-15 03:37:27
533,Mariental,NA,-24.6333,17.9667,68.18,70,23,4.63,light rain,2021-03-15 03:37:27
534,Port Hedland,AU,-20.3167,118.5667,89.6,43,65,20.71,broken clouds,2021-03-15 03:37:28
535,Ixtapa,MX,20.7,-105.2,69.8,78,1,3.44,clear sky,2021-03-15 03:36:37
536,Dukat,RU,62.55,155.55,0.84,84,60,3.71,broken clouds,2021-03-15 03:37:28
537,Saint-Francois,FR,46.4154,3.9054,41.0,87,90,8.05,overcast clouds,2021-03-15 03:37:29
538,Sao Gabriel Da Cachoeira,BR,-0.1303,-67.0892,72.91,93,26,1.74,scattered clouds,2021-03-15 03:34:26
539,Plettenberg Bay,ZA,-34.0527,23.3716,68.13,92,100,3.18,light rain,2021-03-15 03:37:29
540,Mayo,US,38.8876,-76.5119,48.2,29,1,23.02,clear sky,2021-03-15 03:37:29
541,Lethem,GY,3.3803,-59.7968,77.72,79,95,11.43,overcast clouds,2021-03-15 03:37:30
542,Arlit,NE,18.7369,7.3853,71.22,16,0,6.93,clear sky,2021-03-15 03:37:30
543,Pokrovsk,UA,48.282,37.1758,30.47,87,100,12.17,overcast clouds,2021-03-15 03:37:31
544,Ulladulla,AU,-35.35,150.4667,68.0,34,0,8.05,clear sky,2021-03-15 03:37:31
545,Coruripe,BR,-10.1256,-36.1756,76.14,78,100,5.39,overcast clouds,2021-03-15 03:37:31
546,Barra,BR,-11.0894,-43.1417,75.04,64,47,0.54,scattered clouds,2021-03-15 03:32:50
547,Vyartsilya,RU,62.1764,30.693,32.99,98,100,4.68,light snow,2021-03-15 03:37:32
548,Rondonopolis,BR,-16.4708,-54.6356,72.3,90,97,2.98,moderate rain,2021-03-15 03:37:32
549,Toora-Khem,RU,52.4675,96.11,11.37,70,100,1.45,overcast clouds,2021-03-15 03:37:33
550,Xunchang,CN,28.4543,104.715,78.31,44,11,3.91,few clouds,2021-03-15 03:37:33
551,Moron,AR,-34.6534,-58.6198,75.99,63,1,3.0,clear sky,2021-03-15 03:33:10
552,Grand-Lahou,CI,5.1367,-5.0242,78.73,85,100,3.96,overcast clouds,2021-03-15 03:37:34
553,Mahajanga,MG,-15.7167,46.3167,75.2,100,20,1.14,few clouds,2021-03-15 03:37:34
554,Korcula,HR,42.9622,17.1369,42.8,100,90,5.75,overcast clouds,2021-03-15 03:37:35
555,Lisala,CD,2.15,21.5167,69.33,97,100,1.68,light rain,2021-03-15 03:37:35
556,Oranjemund,NA,-28.55,16.4333,61.66,92,4,13.29,clear sky,2021-03-15 03:35:53
557,Mokobeng,BW,-22.9965,27.6678,62.38,88,0,4.7,clear sky,2021-03-15 03:37:36
558,Pryazha,RU,61.6926,33.6216,32.0,100,100,2.24,overcast clouds,2021-03-15 03:37:36
559,Sakyla,FI,61.0333,22.3333,32.0,100,90,5.75,overcast clouds,2021-03-15 03:37:36
560,Wattegama,LK,6.7989,81.4808,84.2,65,0,6.91,clear sky,2021-03-15 03:37:37
561,Lakes Entrance,AU,-37.8811,147.981,75.0,47,0,1.99,clear sky,2021-03-15 03:37:37
562,Sabla,NG,12.7525,4.7077,78.17,23,91,5.53,overcast clouds,2021-03-15 03:37:38
563,Shubarshi,KZ,48.5872,57.1869,6.03,80,100,6.26,overcast clouds,2021-03-15 03:37:38
564,Otradnoye,RU,59.7775,30.8181,35.01,92,100,4.0,snow,2021-03-15 03:37:38
565,Qusar,AZ,41.4273,48.4289,29.53,59,27,3.98,scattered clouds,2021-03-15 03:37:39
566,Pudozh,RU,61.8099,36.5345,32.81,98,100,5.88,snow,2021-03-15 03:37:39
567,Abu Samrah,SY,35.3029,37.1841,54.75,43,100,5.61,overcast clouds,2021-03-15 03:37:40
568,Schruns,AT,47.0709,9.9475,33.01,100,100,0.69,snow,2021-03-15 03:37:40
569,Michigan City,US,41.7075,-86.895,39.0,75,1,15.5,clear sky,2021-03-15 03:32:48
570,Sangar,RU,63.9242,127.4739,-0.62,88,89,14.41,overcast clouds,2021-03-15 03:37:41
571,Les Cayes,HT,18.2,-73.75,72.64,84,1,3.09,clear sky,2021-03-15 03:37:41
572,Taber,CA,49.8167,-112.1518,48.2,53,0,17.27,clear sky,2021-03-15 03:35:48
573,Mandaguari,BR,-23.5475,-51.6708,78.8,61,0,5.75,clear sky,2021-03-15 03:37:42
574,Havre,FR,49.5833,0.3333,48.2,87,90,20.71,overcast clouds,2021-03-15 03:37:42
575,Calbuco,CL,-41.768,-73.1273,53.6,94,90,8.05,overcast clouds,2021-03-15 03:37:43
576,Auki,SB,-8.7676,160.7034,85.05,68,74,6.06,light rain,2021-03-15 03:37:43
